{"LanguageCode":"EN","SearchParameters":{},"SearchResult":{"SearchResultCount":1,"SearchResultCountAll":1,"SearchResultItems":[{"MatchedObjectId":"585167300","MatchedObjectDescriptor":{"PositionID":"AF-FY21-NH-10XX-SPLASH","PositionTitle":"Information and Arts Family","PositionURI":"https://www.usajobs.gov:443/GetJob/ViewDetails/585167300","ApplyURI":["https://www.usajobs.gov:443/GetJob/ViewDetails/585167300?PostingChannelID="],"PositionLocationDisplay":"Location Negotiable After Selection, United States","PositionLocation":[{"LocationName":"Salt Lake City, Utah","CountryCode":"United States","CountrySubDivisionCode":"Utah","CityName":"Salt Lake City, Utah","Longitude":-111.88823,"Latitude":40.75952},{"LocationName":"Seattle, Washington","CountryCode":"United States","CountrySubDivisionCode":"Washington","CityName":"Seattle, Washington","Longitude":-122.32945,"Latitude":47.60358},{"LocationName":"Phoenix, Arizona","CountryCode":"United States","CountrySubDivisionCode":"Arizona","CityName":"Phoenix, Arizona","Longitude":-112.075775,"Latitude":33.44826},{"LocationName":"Los Angeles, California","CountryCode":"United States","CountrySubDivisionCode":"California","CityName":"Los Angeles, California","Longitude":-118.245,"Latitude":34.0535},{"LocationName":"San Francisco, California","CountryCode":"United States","CountrySubDivisionCode":"California","CityName":"San Francisco, California","Longitude":-122.4196,"Latitude":37.7771},{"LocationName":"Denver, Colorado","CountryCode":"United States","CountrySubDivisionCode":"Colorado","CityName":"Denver, Colorado","Longitude":-104.992256,"Latitude":39.74001},{"LocationName":"Washington, District of Columbia","CountryCode":"United States","CountrySubDivisionCode":"District of Columbia","CityName":"Washington, District of Columbia","Longitude":-77.032,"Latitude":38.8904},{"LocationName":"Miami, Florida","CountryCode":"United States","CountrySubDivisionCode":"Florida","CityName":"Miami, Florida","Longitude":-80.23742,"Latitude":25.728985},{"LocationName":"Atlanta, Georgia","CountryCode":"United States","CountrySubDivisionCode":"Georgia","CityName":"Atlanta, Georgia","Longitude":-84.39111,"Latitude":33.748314},{"LocationName":"Chicago, Illinois","CountryCode":"United States","CountrySubDivisionCode":"Illinois","CityName":"Chicago, Illinois","Longitude":-87.63241,"Latitude":41.88415},{"LocationName":"Indianapolis, Indiana","CountryCode":"United States","CountrySubDivisionCode":"Indiana","CityName":"Indianapolis, Indiana","Longitude":-86.14996,"Latitude":39.76691},{"LocationName":"New Orleans, Louisiana","CountryCode":"United States","CountrySubDivisionCode":"Louisiana","CityName":"New Orleans, Louisiana","Longitude":-90.07771,"Latitude":29.95369},{"LocationName":"Boston, Massachusetts","CountryCode":"United States","CountrySubDivisionCode":"Massachusetts","CityName":"Boston, Massachusetts","Longitude":-71.0567,"Latitude":42.358635},{"LocationName":"Minneapolis, Minnesota","CountryCode":"United States","CountrySubDivisionCode":"Minnesota","CityName":"Minneapolis, Minnesota","Longitude":-93.26493,"Latitude":44.979034},{"LocationName":"Kansas City, Missouri","CountryCode":"United States","CountrySubDivisionCode":"Missouri","CityName":"Kansas City, Missouri","Longitude":-94.58306,"Latitude":39.10296},{"LocationName":"Albuquerque, New Mexico","CountryCode":"United States","CountrySubDivisionCode":"New Mexico","CityName":"Albuquerque, New Mexico","Longitude":-106.649,"Latitude":35.0842},{"LocationName":"New York, New York","CountryCode":"United States","CountrySubDivisionCode":"New York","CityName":"New York, New York","Longitude":-74.0071,"Latitude":40.7146},{"LocationName":"Oklahoma City, Oklahoma","CountryCode":"United States","CountrySubDivisionCode":"Oklahoma","CityName":"Oklahoma City, Oklahoma","Longitude":-97.52033,"Latitude":35.472004},{"LocationName":"Portland, Oregon","CountryCode":"United States","CountrySubDivisionCode":"Oregon","CityName":"Portland, Oregon","Longitude":-122.67563,"Latitude":45.511795},{"LocationName":"Austin, Texas","CountryCode":"United States","CountrySubDivisionCode":"Texas","CityName":"Austin, Texas","Longitude":-97.743,"Latitude":30.2676}],"OrganizationName":"Department of the Air Force - Agency Wide","DepartmentName":"Department of the Air Force","JobCategory":[{"Name":"General Arts And Information","Code":"1001"},{"Name":"Museum Curator","Code":"1015"},{"Name":"Public Affairs","Code":"1035"},{"Name":"Language Specialist","Code":"1040"},{"Name":"Visual Information","Code":"1084"}],"JobGrade":[{"Code":"NH"}],"PositionSchedule":[{"Name":"Multiple Schedules","Code":"6"}],"PositionOfferingType":[{"Name":"Multiple Appointment Types","Code":"15327"}],"QualificationSummary":"For additional information on direct hire opportunities with the Air Force please click here.","PositionRemuneration":[{"MinimumRange":"19543.0","MaximumRange":"142180.0","RateIntervalCode":"Per Year"}],"PositionStartDate":"2021-12-01T00:00:00.0000","PositionEndDate":"2022-11-30T23:59:59.9970","PublicationStartDate":"2021-12-01T00:00:00.0000","ApplicationCloseDate":"2022-11-30T23:59:59.9970","PositionFormattedDescription":[{"Label":"Dynamic Teaser","LabelDescription":"Hit highlighting for keyword searches."}],"UserArea":{"Details":{"JobSummary":"The Air Force offers qualified applicants opportunities to be hired for certain occupations covered by Direct Hire Authorities (DHA). The use of DHA is a fast-track method of hiring applicants from the public with no prior federal status using a non-traditional method of recruitment. To find additional information on \"What Is DHA\" and to view and/or apply to current DHA opportunities listed on Air Force Civilian Service's \"Direct Hire Job Board\", please click here.","WhoMayApply":{"Name":"","Code":""},"LowGrade":"1","HighGrade":"4","PromotionPotential":"None","OrganizationCodes":"DD/AF00","Relocation":"False","HiringPath":["public","fed-competitive","fed-excepted","disability","land","mspouse","peace","graduates","student","vet"],"TotalOpenings":"MANY","AgencyMarketingStatement":"IMPORTANT INFORMATION: This Job Opportunity Announcement (JOA) will be used to form a pool of qualified applicants who will be considered for direct hire vacancies as they become available.","TravelCode":"0","MajorDuties":["For additional information on direct hire opportunities with the Air Force please click here."],"Education":"","Requirements":"","Evaluations":"For additional information on direct hire opportunities with the Air Force please click here.","HowToApply":"For additional information on direct hire opportunities with the Air Force please click here.","WhatToExpectNext":"For additional information on direct hire opportunities with the Air Force please click here.","RequiredDocuments":"For additional information on direct hire opportunities with the Air Force please click here.","Benefits":"","BenefitsUrl":"https://www.usajobs.gov/Help/working-in-government/benefits/","BenefitsDisplayDefaultText":true,"OtherInformation":"","KeyRequirements":[],"WithinArea":"False","CommuteDistance":"0","ServiceType":"01","AnnouncementClosingType":"01","AgencyContactEmail":"DO.NOT.EMAIL@CALL.ONLY","AgencyContactPhone":"1-800-525-0102","SecurityClearance":"Not Required","DrugTestRequired":"False","AdjudicationType":[],"TeleworkEligible":false},"IsRadialSearch":false}},"RelevanceRank":0}],"UserArea":{"NumberOfPages":"1","IsRadialSearch":false}}}